{
  "type": "FeatureCollection",
  "crs": {
    "type": "name",
    "properties": { "name": "urn:ogc:def:crs:OGC:1.3:CRS84" }
  },
  "features": [
    {
      "type": "Feature",
      "properties": {
        "NAME": "Billings Estate National Historic Site",
        "ADDRESS": "2100 Cabot Street, Ottawa",
        "TELEPHONE": "613-247-4830",
        "TYPE": "Museum",
        "CITY_WARD": 18,
        "NAME_FR": "Lieu historique national du domaine Billings"
      },
      "geometry": {
        "type": "Point",
        "coordinates": [-75.672734688142512, 45.389689544296473]
      }
    },
    {
      "type": "Feature",
      "properties": {
        "NAME": "Cumberland Heritage Village Museum",
        "ADDRESS": "2940 Old Montreal Road, Cumberland",
        "TELEPHONE": "613-833-3059",
        "TYPE": "Museum",
        "CITY_WARD": 19,
        "NAME_FR": "Musée-village du patrimoine de Cumberland"
      },
      "geometry": {
        "type": "Point",
        "coordinates": [-75.390352426859209, 45.516463769405838]
      }
    },
    {
      "type": "Feature",
      "properties": {
        "NAME": "Goulbourn Museum",
        "ADDRESS": "2064 Huntley Road, Stittsville",
        "TELEPHONE": "613-831-2393",
        "TYPE": "Community Museum",
        "CITY_WARD": 21,
        "NAME_FR": "Musée de Goulbourn"
      },
      "geometry": {
        "type": "Point",
        "coordinates": [-75.905974332569727, 45.234548772145587]
      }
    },
    {
      "type": "Feature",
      "properties": {
        "NAME": "Ottawa Jewish Archives",
        "ADDRESS": "21 Nadolny Sachs Private, Ottawa",
        "TELEPHONE": "613-798-4696",
        "TYPE": "Community Museum",
        "CITY_WARD": 15,
        "NAME_FR": "Archives juives d'Ottawa"
      },
      "geometry": {
        "type": "Point",
        "coordinates": [-75.751987334562827, 45.376149830071782]
      }
    },
    {
      "type": "Feature",
      "properties": {
        "NAME": "Nepean Museum",
        "ADDRESS": "16 Rowley Avenue, Nepean",
        "TELEPHONE": "613-723-7936",
        "TYPE": "Community Museum",
        "CITY_WARD": 8,
        "NAME_FR": "Musée de Nepean"
      },
      "geometry": {
        "type": "Point",
        "coordinates": [-75.741473897019702, 45.349133677166044]
      }
    },
    {
      "type": "Feature",
      "properties": {
        "NAME": "Osgoode Township Historical Society and Museum",
        "ADDRESS": "7814 Lawrence Street, P.O. Box 74, Vernon",
        "TELEPHONE": "613-821-4062",
        "TYPE": "Community Museum",
        "CITY_WARD": 20,
        "NAME_FR": "Musée et société historique du canton d'Osgoode"
      },
      "geometry": {
        "type": "Point",
        "coordinates": [-75.462488995352246, 45.159965768611059]
      }
    },
    {
      "type": "Feature",
      "properties": {
        "NAME": "Pinhey's Point Historic Site",
        "ADDRESS": "270 Pinhey Point Road",
        "TELEPHONE": "613-832-4347",
        "TYPE": "Museum",
        "CITY_WARD": 5,
        "NAME_FR": "Lieu historique de Pinhey's Point"
      },
      "geometry": {
        "type": "Point",
        "coordinates": [-75.953270548815084, 45.440422772971566]
      }
    },
    {
      "type": "Feature",
      "properties": {
        "NAME": "Muséoparc Vanier Museopark",
        "ADDRESS": "300, des Pères Blancs avenue, 2nd Floor, Vanier",
        "TELEPHONE": "613-580-2424",
        "TYPE": "Community Museum",
        "CITY_WARD": 12,
        "NAME_FR": "Muséoparc Vanier Museopark"
      },
      "geometry": {
        "type": "Point",
        "coordinates": [-75.659630969526603, 45.443890788942561]
      }
    },
    {
      "type": "Feature",
      "properties": {
        "NAME": "Watson's Mill",
        "ADDRESS": "5525 Mill Street, Manotick",
        "TELEPHONE": "613-692-6455",
        "TYPE": "Community Museum",
        "CITY_WARD": 21,
        "NAME_FR": "Moulin Watson"
      },
      "geometry": {
        "type": "Point",
        "coordinates": [-75.682805208477575, 45.226999247595266]
      }
    },
    {
      "type": "Feature",
      "properties": {
        "NAME": "Bytown Museum",
        "ADDRESS": "1 Canal Lane, Ottawa",
        "TELEPHONE": "613-234-4570",
        "TYPE": "Community Museum",
        "CITY_WARD": 14,
        "NAME_FR": "Musée Bytown"
      },
      "geometry": {
        "type": "Point",
        "coordinates": [-75.697670440687887, 45.425840350945364]
      }
    },
    {
      "type": "Feature",
      "properties": {
        "NAME": "Diefenbunker: Canada's Cold War Museum",
        "ADDRESS": "3911 Carp Road, Box 466, Carp",
        "TELEPHONE": "613-839-0007",
        "TYPE": "Community Museum",
        "CITY_WARD": 5,
        "NAME_FR": "Diefenbunker : Musée de la guerre froide du Canada"
      },
      "geometry": {
        "type": "Point",
        "coordinates": [-76.047736380534801, 45.35165383919103]
      }
    },
    {
      "type": "Feature",
      "properties": {
        "NAME": "Ottawa Room",
        "ADDRESS": "120 Metcalfe Street, Ottawa (Ottawa Public Library)",
        "TELEPHONE": "613-580-2424",
        "TYPE": "Community Museum",
        "CITY_WARD": 14,
        "NAME_FR": "Salle d'Ottawa"
      },
      "geometry": {
        "type": "Point",
        "coordinates": [-75.695531943469945, 45.42024576461295]
      }
    }
  ]
}
